名称,省份,真实城市,市县区,区号,电话,区域,地址,大分类,小分类,经度,纬度
好医生连锁药房,四川,成都,金堂县,028,,金堂县其他,十里大道一段643-645附近,医疗健康,药店,104.408403983,30.8613753287
维朗口腔,四川,成都,双流区,028,85698080,天府新区,万顺路一段313号,医疗健康,齿科,104.023913,30.491936
洁安口腔,四川,成都,双流区,028,85657133;180****4812,双流机场,长江路三段30号前锋·空港国际1栋2层11号,医疗健康,齿科,103.9908823,30.57512682
瑞安口腔,四川,成都,郫县,028,87846666,郫筒街道,蜀信东路120号,医疗健康,齿科,103.891167,30.792114
彭州市第二人民医院,四川,成都,彭州市,028,83829238,蒙阳镇,濛三北路696号,医疗健康,医院,104.11891,30.95042
瑞森药业,四川,成都,新津县,028,82523286,五津镇,五津镇武阳东路34号,医疗健康,药店,103.82096,30.4116
博雅口腔,四川,成都,温江区,028,82762728;138****2480,温江第五医院,来凤路406-408号,医疗健康,齿科,103.826219,30.699381
长春堂药店,四川,成都,大邑县,028,,大邑县其他,长春西路附近,医疗健康,药店,103.525025,30.580271
康然堂大药房,四川,成都,大邑县,028,88215126,大邑县其他,围城北路西段114-116号,医疗健康,药店,103.518014,30.588349
百草医药,四川,成都,大邑县,028,,大邑县其他,经济技术开发区工业大道二段,医疗健康,药店,103.539407,30.565053
太极大药房,四川,成都,大邑县,028,,晋原镇,东壕沟北段148-150-152号,医疗健康,药店,103.524106,30.589279
超惠药房,四川,成都,大邑县,028,,晋原镇,晋原镇围城北路中段54号,医疗健康,药店,103.52218,30.58975
恩威道源圣城医院,四川,成都,大邑县,028,,大邑县其他,平阳路1,医疗健康,医院,103.407859951,30.6329074648
王泗镇黄土村卫生站,四川,成都,大邑县,028,130****8634,大邑县其他,盐化苏路与粗义路交汇处西北100米,医疗健康,医院,103.499327,30.560843
杜氏诊所,四川,成都,大邑县,028,84378825,大邑县其他,围城北路西段54号,医疗健康,医院,103.51884,30.589382
第三人民医院骨科医院,四川,成都,大邑县,028,88299120,大邑县其他,富民路南段40号,医疗健康,医院,103.52712,30.580843
大邑县人民医院,四川,成都,大邑县,028,88227667,晋原镇,晋原镇北街323号,医疗健康,医院,103.519003,30.592753
现代牙科,四川,成都,大邑县,028,88287258,大邑县其他,横东巷逸龙网吧对面,医疗健康,齿科,103.525096,30.587726
晓林口腔,四川,成都,大邑县,028,88221088,大邑县其他,蓉新南街与观音阁街交叉口东100米,医疗健康,齿科,103.524455577,30.5779960579
唯爱美牙,四川,成都,大邑县,028,,大邑县其他,箭道横街86号附近,医疗健康,齿科,103.522527069,30.588722919
肖杰齿科,四川,成都,大邑县,028,182****6166,安仁古镇/博物馆,商业街84,医疗健康,齿科,103.617437,30.51304846
四川大学华西口腔医学院大邑县第三人民医院合作医院,四川,成都,大邑县,028,,大邑县其他,富民路南段40号,医疗健康,齿科,103.526947,30.58044
永康明专攻近视弱视,四川,成都,大邑县,028,88222064,新世纪广场,箭道街与金秋巷交叉口东50米,医疗健康,眼科医院,103.522233367,30.5899443505
维视·视光中心,四川,成都,大邑县,028,,大邑县其他,机黄路与滨河路西段交叉口东50米,医疗健康,眼科医院,103.518053144,30.5910884184
视力养护中心,四川,成都,大邑县,028,,新世纪广场,围城北路西段与西门巷交叉口东南50米,医疗健康,眼科医院,103.517594486,30.5854591509
李氏艾灸疗法,四川,成都,大邑县,028,88326544,大邑县其他,晋原镇官渡东路东二巷28号,医疗健康,其他医疗,103.520508129,30.572992443
权健自然医学养生馆,四川,成都,大邑县,028,,大邑县其他,晋原东顺花园西,医疗健康,其他医疗,103.53202,30.58729
香磨五谷食疗养生坊,四川,成都,大邑县,028,,大邑县其他,迎春道31号附近,医疗健康,其他医疗,103.526829332,30.5877554605
胖妹推拿理疗,四川,成都,大邑县,028,,大邑县其他,西门巷11号,医疗健康,其他医疗,103.51697,30.58554
TM脊柱梳理,四川,成都,大邑县,028,,新世纪广场,晋原镇金巷西街94号,医疗健康,其他医疗,103.519536406,30.5839744291
修脚灰指甲,四川,成都,大邑县,028,,新世纪广场,围城南路西段与建华北一巷交叉口西北50米,医疗健康,皮肤病医院,103.520259261,30.5824042476
甲丽净灰指甲,四川,成都,大邑县,028,88218025,新世纪广场,围城北路西段318号,医疗健康,皮肤病医院,103.517449647,30.5851578212
靓丽女人女子护理中心,四川,成都,大邑县,028,,大邑县其他,将军街157号,医疗健康,妇科医院,103.479705602,30.5168865598
红房子,四川,成都,大邑县,028,,大邑县其他,晋原镇滨河路西段滨江小区北,医疗健康,妇科医院,103.516691364,30.591028294
龙华村医疗站,四川,成都,大邑县,028,,大邑县其他,牟龙路东50米,医疗健康,体检中心,103.713430613,30.552818892
美年大健康,四川,成都,大邑县,028,,潘家街,泰坤首座顺兴路75号,医疗健康,体检中心,103.53084,30.582317
伍师中医推拿按摩,四川,成都,大邑县,028,,大邑县其他,西濠沟街南段与西街交叉口北,医疗健康,中医,103.519209,30.586381
中医养生馆,四川,成都,大邑县,028,,潘家街,顺兴路与鸳鸯中街交叉口东南50米,医疗健康,中医,103.53197515,30.5846013401
永寿诊所中医针灸理疗,四川,成都,大邑县,028,,大邑县其他,军民街11号,医疗健康,中医,103.63061,30.48186
吴医生中医馆,四川,成都,大邑县,028,,大邑县其他,盐化苏路附近,医疗健康,中医,103.499461412,30.560840543
曾氏中医理疗,四川,成都,大邑县,028,,滨江路,城西街与戴巷子交叉口东北50米,医疗健康,中医,103.51275444,30.5832089688
馨睿堂鼻炎馆,四川,成都,大邑县,028,,新世纪广场,南街257号附近,医疗健康,耳鼻喉医院,103.523204327,30.5806793276
金堂药业,四川,成都,金堂县,028,84981644,金堂县其他,金龙路,医疗健康,药店,104.429037,30.852053
金堂县三中园区一致药店,四川,成都,金堂县,028,,金堂县其他,金泉路杨柳桥小区底商,医疗健康,药店,104.386081,30.848913
康民堂药店,四川,成都,金堂县,028,84901102,清江镇,清江镇清江路522-526号,医疗健康,药店,104.385681,30.908742
金堂金龙大药房,四川,成都,金堂县,028,,金堂县其他,新建路与金龙路交叉口旁,医疗健康,药店,104.428313,30.854831
天钰口腔,四川,成都,金堂县,028,84977858;180****4579,金堂县其他,迎宾大道75号,医疗健康,齿科,104.410504,30.85976
金堂县妇幼保健院,四川,成都,金堂县,028,84982030,金堂县其他,金泉路6号,医疗健康,医院,104.417287856,30.8450820774
金堂县第三人民医院,四川,成都,金堂县,028,84966777,竹篙镇,竹篙镇上正街88号,医疗健康,医院,104.72926,30.62923
美生齿科,四川,成都,金堂县,028,84909072,三星镇,三星镇兰家店路652号,医疗健康,齿科,104.45951,30.849478
金堂县雅洁口腔,四川,成都,金堂县,028,84153300,赵镇街道,兴农街33号,医疗健康,齿科,104.44131,30.85565
第一人民医院,四川,成都,金堂县,028,84932532,赵镇街道,郊山路49号,医疗健康,医院,104.43147,30.85622
保健院口腔科,四川,成都,金堂县,028,84994417,金堂县其他,幸福横路101号,医疗健康,齿科,104.43569,30.858178
黄氏中西医骨科医院,四川,成都,金堂县,028,84983185,金堂县其他,广金路附近,医疗健康,医院,104.430143,30.860748
金堂华美口腔医院,四川,成都,金堂县,028,84968120,赵镇街道,赵镇十里大道二段180号,医疗健康,齿科,104.407569,30.861632
金堂县第二人民医院,四川,成都,金堂县,028,84634737;84915351,金堂县其他,淮白路275号,医疗健康,医院,104.557719,30.708727
自然之声助听器,四川,成都,金堂县,028,173****1861,金堂县其他,十里大道一段263号,医疗健康,其他医疗,104.423501,30.856767
三才中医,四川,成都,金堂县,028,,金堂县其他,十里大道二段506号,医疗健康,中医,104.401964396,30.8632657914
金堂县中医医院-急诊科,四川,成都,金堂县,028,84933123,金堂县其他,鸣凤路99号中医医院,医疗健康,中医,104.39881,30.851519
舒心堂中医理疗,四川,成都,金堂县,028,,金堂县其他,汇龙路36号附近,医疗健康,中医,104.430355579,30.8509046029
聚安堂中医养生馆,四川,成都,金堂县,028,,金堂县其他,淮洛路东100米,医疗健康,中医,104.476211965,30.6026876496
中医理疗,四川,成都,金堂县,028,,金堂县其他,三江路140-142号附近,医疗健康,中医,104.438783079,30.8584156799
甲丽净灰指甲,四川,成都,金堂县,028,,金堂县其他,十里大道一段698号,医疗健康,皮肤病医院,104.41371,30.859802
灰指甲专业修脚,四川,成都,金堂县,028,,金堂县其他,十里大道一段苏宁旁,医疗健康,皮肤病医院,104.419937,30.857846
铭甲科技灰指甲,四川,成都,金堂县,028,,金堂县其他,十里大道一段229号附近,医疗健康,皮肤病医院,104.423954487,30.8564873096
世龙世家灰指甲,四川,成都,金堂县,028,,金堂县其他,十里大道二段与秀阳街交叉口西北100米,医疗健康,皮肤病医院,104.414112121,30.8598581906
世龙世家灰指甲,四川,成都,金堂县,028,,金堂县其他,金沙街221号,医疗健康,皮肤病医院,104.405935407,30.8610842501
金堂县青少年视力控制预防中心,四川,成都,金堂县,028,,金堂县其他,十里大道一段292号附近,医疗健康,眼科医院,104.423455596,30.8568891046
瞳睁视力管家,四川,成都,金堂县,028,,康宁路,万安街173号附近,医疗健康,眼科医院,104.417928904,30.8555858551
菲份眼健康管理专家,四川,成都,金堂县,028,,金堂县其他,金凤路555号,医疗健康,眼科医院,104.394377,30.85116
红汇耳鼻喉医院-急诊,四川,成都,金堂县,028,,金堂县其他,南滨路268号附近,医疗健康,耳鼻喉医院,104.439169317,30.8490992779
金堂红汇耳鼻喉医院,四川,成都,金堂县,028,84977718,金堂县其他,和平街与南滨路交叉口旁,医疗健康,耳鼻喉医院,104.439383,30.849222
精神卫生保健院,四川,成都,金堂县,028,84915299,淮口镇,淮口镇中华街52号,医疗健康,精神卫生机构,104.55748,30.722548
康之源生物理疗健康中心,四川,成都,金堂县,028,,金堂县其他,朝阳街与秀阳街交叉口西北50米,医疗健康,心血管医院,104.414403141,30.8612845626
金堂医疗按摩,四川,成都,金堂县,028,136****0674,金堂县其他,南滨路与广金公路交叉口东南50米,医疗健康,体检中心,104.432439655,30.8577836392
驾驶员体检站,四川,成都,金堂县,028,,金堂县其他,郊山路与金西路交叉口南50米,医疗健康,体检中心,104.431066364,30.856580563
国药中生金堂单采血浆站,四川,成都,金堂县,028,,万方街,十里大道一段315-317号附近,医疗健康,体检中心,104.421188,30.856838
斑美拉脸部排毒体验中心,四川,成都,金堂县,028,,金堂县其他,青果街32号附近,医疗健康,体检中心,104.437538534,30.8527628548
呼吸道疾病留观室,四川,成都,金堂县,028,,金堂县其他,郊山路与金西路交叉口南100米,医疗健康,男科医院,104.431232661,30.8564953685
廖氏专业治疗,四川,成都,金堂县,028,152****1363,金堂县其他,康宁街与永安街一段交叉口旁,医疗健康,其他医疗,104.417635,30.856101
康复诊所,四川,成都,金堂县,028,,淮口镇,兴淮大道与现代大道交叉口西,医疗健康,其他医疗,104.547938,30.715111
蜂针理疗馆,四川,成都,金堂县,028,136****3833,金堂县其他,金阳街98号,医疗健康,其他医疗,104.405592,30.851413
蜂珍之家金堂服务中心,四川,成都,金堂县,028,,金堂县其他,南滨路与烟市街交叉口东50米,医疗健康,其他医疗,104.437344074,30.8514906354
简阳市顺康大药房,四川,成都,简阳市,028,23192018,简阳市其他,新民街212-214号,医疗健康,药店,104.54794,30.38939
回春大药房,四川,成都,简阳市,028,24031759,简阳市其他,火车站街与白塔路交叉口西150米,医疗健康,药店,104.55366,30.379406
润德堂药房,四川,成都,简阳市,028,27985221,简阳市其他,河东新区山水年华b区,医疗健康,药店,104.54546,30.40231
爱晚中心,四川,成都,简阳市,028,,河东新区,金绛路10号,医疗健康,医院,104.555818,30.405397
简阳市第二人民医院,四川,成都,简阳市,028,27923120,贾家镇,贾家镇健康路74号,医疗健康,医院,104.356774,30.435818
云龙卫生院,四川,成都,简阳市,028,,云龙镇,螺简路支线,医疗健康,医院,104.809118,30.419197
石桥镇卫生院,四川,成都,简阳市,028,,石桥镇,新街与186县道交叉口北50米,医疗健康,医院,104.519935995,30.4223886705
简阳市川空人民医院,四川,成都,简阳市,028,23186120,老城区,建设中路239号,医疗健康,医院,104.54460174,30.3854009956
德华牙科,四川,成都,简阳市,028,,简城镇,简城镇政府街84号,医疗健康,齿科,104.54986,30.39128
博雅康口腔,四川,成都,简阳市,028,27098910;180****3932,河东新区,印鳌路2号花园底商,医疗健康,齿科,104.54112,30.408245
郭训英口腔诊所,四川,成都,简阳市,028,27279598;155****1907,简阳市其他,简城镇长盛街,医疗健康,齿科,104.551798,30.385226
美年大健康,四川,成都,简阳市,028,187****3026,河东新区,东溪北路巴黎阳光211-219号9栋,医疗健康,体检中心,104.56208,30.391456
廖氏牙科,四川,成都,简阳市,028,,简阳市其他,堤坝街58附近,医疗健康,齿科,104.639617,30.342655
天顺祥大药房,四川,成都,简阳市,028,,简阳市其他,159乡道附近,医疗健康,药店,104.580299921,30.3276739497
万和大药房,四川,成都,简阳市,028,,简阳市其他,红建路339附近,医疗健康,药店,104.54969,30.394619
冯氏牙科,四川,成都,简阳市,028,,河东新区,金融街248号附近,医疗健康,齿科,104.540926963,30.4099548232
老谢修脚店,四川,成都,简阳市,028,,简阳市其他,川橡路与芙蓉街交叉口北200米,医疗健康,其他医疗,104.503256679,30.4955867983
刘氏养蜂场,四川,成都,简阳市,028,,老城区,东风路31号瑞信云鼎6号,医疗健康,其他医疗,104.55369,30.38364
好孩子仓库,四川,成都,简阳市,028,,老城区,新民街148号煤建公司大院内,医疗健康,其他医疗,104.547058493,30.390081204
扈氏,四川,成都,简阳市,028,,简阳市其他,五友路97号附近,医疗健康,其他医疗,104.548410326,30.3956061082
普照敬老院,四川,成都,简阳市,028,,简阳市其他,103乡道附近,医疗健康,其他医疗,104.67717,30.38872
简阳家乐精神康复医院,四川,成都,简阳市,028,27022299,老城区,广场路与建设西路交叉口东南50米,医疗健康,精神卫生机构,104.540001601,30.3762409657
惠茂健康体验中心,四川,成都,简阳市,028,,河东新区,金融街11号附近,医疗健康,体检中心,104.540961832,30.4095604207
奥琳德简阳健康体验中心,四川,成都,简阳市,028,186****6543,老城区,五友路与蓝鲸路交叉口西50米,医疗健康,体检中心,104.55277428,30.3906387986
同福堂有氧体验中心,四川,成都,简阳市,028,,老城区,建设中路404号附近,医疗健康,体检中心,104.543882757,30.3846959727
乐施林眼康服务中心,四川,成都,简阳市,028,,河东新区,东滨路南段130号附近,医疗健康,眼科医院,104.545710683,30.4029594374
永康青少年视力提升中心,四川,成都,简阳市,028,27758058,河东新区,雄州大道南段新陶居装饰北10米,医疗健康,眼科医院,104.552562386,30.4008519329
鼻舒堂鼻腔健康护理中心,四川,成都,简阳市,028,,老城区,滨江路29号附近,医疗健康,耳鼻喉医院,104.548221231,30.3957217854
祖传苟印喉科,四川,成都,简阳市,028,,简阳市其他,简阳市镇金镇金镇牛头嘴街1号附近,医疗健康,耳鼻喉医院,104.370382726,30.1970287606
甲冉生灰指甲,四川,成都,简阳市,028,,河东新区,文苑街与雄州大道南段交叉口西南100米,医疗健康,皮肤病医院,104.54834193,30.402440084
济世大药房,四川,成都,邛崃市,028,88779177,邛崃市,临邛镇方圆街183185号,医疗健康,药店,103.464337102,30.4026838141
天玉大药房,四川,成都,邛崃市,028,88763423,邛崃市,文庙街22号,医疗健康,药店,103.460333347,30.4070112241
高寿堂药房,四川,成都,邛崃市,028,,邛崃市,禹王街雅芳对面,医疗健康,药店,103.335339,30.343339
康顺药店,四川,成都,邛崃市,028,,邛崃市,正街孕婴超市旁,医疗健康,药店,103.582932,30.381461
性保健用品专卖,四川,成都,邛崃市,028,,邛崃市,文星巷13附近,医疗健康,药店,103.467964,30.41192
贰幺叁牙科,四川,成都,邛崃市,028,88775596,邛崃市,邛陶路74号,医疗健康,齿科,103.453369,30.406854
乐美康口腔诊所,四川,成都,邛崃市,028,88702188;183****5800,邛崃市,邛陶路28号,医疗健康,齿科,103.45278,30.40553
眼博士视光中心,四川,成都,邛崃市,028,,邛崃市,玉带街88号附近,医疗健康,医院,103.4562,30.39982
博美牙科,四川,成都,邛崃市,028,,邛崃市,司马大道西滨纪附近,医疗健康,齿科,103.461882,30.400743
雅江诊所,四川,成都,邛崃市,028,185****2992;185****8992,邛崃市,玉带街与步行街交叉口西,医疗健康,医院,103.455894,30.399407
临济镇黄庙村卫生站,四川,成都,邛崃市,028,,邛崃市,政府街与文庙街交叉口西北50米,医疗健康,医院,103.29223,30.26436
邛崃市平乐镇卫生院,四川,成都,邛崃市,028,88782377,邛崃市,台子街附近,医疗健康,医院,103.334752,30.345557
安全牙科,四川,成都,邛崃市,028,88798000,建设路,建设路156号佳佳中介隔壁,医疗健康,齿科,103.463556,30.408131
华美牙科,四川,成都,邛崃市,028,88764561;4006889189,邛崃市,临邛镇蜚虹路175号,医疗健康,齿科,103.476256,30.414189
美年大健康,四川,成都,邛崃市,028,,邛崃市,临邛镇凤凰大道642号景华百货4层,医疗健康,体检中心,103.46417,30.40052
城东医院,四川,成都,邛崃市,028,88720999,邛崃市,文昌街201附近,医疗健康,医院,103.47829,30.4098
海林特色疗法,四川,成都,邛崃市,028,135****1980,邛崃市,新建街250附近,医疗健康,其他医疗,103.67049,30.351031
邛崃市中医医院,四川,成都,邛崃市,028,,邛崃市,临邛镇西街上段59号,医疗健康,中医,103.459479,30.413447
铧玻诊所,四川,成都,邛崃市,028,,盐市口,大北街时和家园底商,医疗健康,其他医疗,103.465972,30.413553
康复诊所,四川,成都,邛崃市,028,88795433;153****6451,邛崃市,073县道舒欣对面,医疗健康,其他医疗,103.451545,30.416041
人春友诊所,四川,成都,邛崃市,028,,邛崃市,南街竹溪苑,医疗健康,其他医疗,103.459073,30.40647
茂高中医诊所,四川,成都,邛崃市,028,,邛崃市,文星街122号,医疗健康,中医,103.470650464,30.4120621312
许师经络养生馆,四川,成都,邛崃市,028,,邛崃市,西环路8-附12号附近,医疗健康,中医,103.452144563,30.4133100709
中医养生馆,四川,成都,邛崃市,028,,邛崃市,永康大道94号附近,医疗健康,中医,103.704682589,30.3965824197
康旺中医理疗,四川,成都,邛崃市,028,,邛崃市,当垆街13号附近,医疗健康,中医,103.461341858,30.4097998382
豫本草健康中心,四川,成都,邛崃市,028,,邛崃市,兴欣街93号附近,医疗健康,心血管医院,103.475577682,30.4027338834
幼幼堂母子健康中心,四川,成都,邛崃市,028,,邛崃市,邛崃市南街与玉带街交叉口西南100米,医疗健康,心血管医院,103.458225131,30.4043069672
自然养生健康体验中心,四川,成都,邛崃市,028,,邛崃市,正街199号附近,医疗健康,体检中心,103.688071668,30.3056360437
邛崃市天台山中心敬老院,四川,成都,邛崃市,028,,邛崃市,粮农街116,医疗健康,体检中心,103.325320333,30.31051389
全家福健康体验中心,四川,成都,邛崃市,028,,邛崃市,东虹路155-附76号附近,医疗健康,体检中心,103.478262573,30.4076230836
美年大健康,四川,成都,邛崃市,028,187****3026,东门商业圈,广电巷鼎盛时代商业广场B区2楼,医疗健康,体检中心,103.464192,30.399594
一手一足手足护理中心,四川,成都,邛崃市,028,,邛崃市,文星巷11-附1号附近,医疗健康,耳鼻喉医院,103.467992395,30.4118227192
邛崃市协和门专业妇科,四川,成都,邛崃市,028,,邛崃市,东虹路与长安大道交叉口西50米,医疗健康,妇科医院,103.47899884,30.4046088575
肖医生妇科,四川,成都,邛崃市,028,,邛崃市,长安大道496号,医疗健康,妇科医院,103.479049802,30.4046562809
灰指甲,四川,成都,邛崃市,028,,邛崃市,天庆街249号附近,医疗健康,皮肤病医院,103.454633653,30.4108766314
性福之源,四川,成都,邛崃市,028,158****1905,邛崃市,长松路与依政路交叉口北50米,医疗健康,其他医疗,103.452120423,30.4128601668
睛视界视力保健,四川,成都,邛崃市,028,,邛崃市,兴贤街与建设路交叉口西50米,医疗健康,眼科医院,103.463636488,30.4081736382
视易加视力矫正中心,四川,成都,邛崃市,028,,邛崃市,北小路129号附近,医疗健康,眼科医院,103.462664187,30.4202815854
慧视洁视力恢复中心,四川,成都,邛崃市,028,,邛崃市,凌云街74号附近,医疗健康,眼科医院,103.459782153,30.3995112958
维仕青少年视力服务中心,四川,成都,邛崃市,028,,邛崃市,司马大道468号附近,医疗健康,眼科医院,103.459949791,30.3999682018
维仕青山年视力服务中心,四川,成都,邛崃市,028,,邛崃市,司马大道南100米,医疗健康,眼科医院,103.45998466,30.4001926055
森雅口腔,四川,成都,双流区,028,68839678;67042918,天府新区,天府大道南段1399号时代天城1栋25楼,医疗健康,齿科,104.071554,30.50348
吕医生高新紫藤诊所,四川,成都,双流区,028,,天府新区,中德英伦城邦,医疗健康,医院,104.074004354,30.5050371841
双流华美口腔医院,四川,成都,双流区,028,85895986,城南优品道广场,白衣上街177号优品道广场2楼,医疗健康,齿科,103.911580544,30.5964574124
成都市天府新区人民医院,四川,成都,双流区,028,85642310;85642313,华阳,天府新区华阳街道正北上街97号,医疗健康,医院,104.056318,30.50753
铂灵口腔,四川,成都,双流区,028,62753085,航空港,机场路常乐二段60号,医疗健康,齿科,103.986088,30.573415
强森醫療·慕和南道門診部,四川,成都,双流区,028,64578852,天府新区,华府大道一段942号,医疗健康,医院,104.049551,30.52673
中和医院,四川,成都,双流区,028,85658497,中和街道,中和大道356号,医疗健康,医院,104.08992,30.54931
吕医生天府新区雅居乐诊所,四川,成都,双流区,028,,双流县其他,雅居乐花园小区,医疗健康,医院,104.141463836,30.4741383172
瑞华药房连锁,四川,成都,双流区,028,85654969,中和街道,中和镇新上街22-24号,医疗健康,药店,104.089419,30.55934
百信药业配送点,四川,成都,双流区,028,158****8127,双流县其他,府河路156号,医疗健康,药店,104.084324,30.559867
一杆旗药房,四川,成都,双流区,028,85833431,东升镇,藏卫路北四段2号三鑫大厦1层,医疗健康,药店,103.926615,30.573534
九华药品,四川,成都,双流区,028,83420939,双流县其他,大件路百家段19号成都新天地商铺15号九华药房,医疗健康,药店,104.010337,30.567118
本草堂药品,四川,成都,双流区,028,83916472,双流县其他,机场路社区七组135号附近,医疗健康,药店,103.997195,30.567011
双流国氏中医诊所,四川,成都,双流区,028,,双流县其他,南二街137号,医疗健康,中医,103.98131819,30.5747615078
傅氏中医馆,四川,成都,双流区,028,,天府新区,广宁路与天研路交叉口旁,医疗健康,中医,104.067749,30.490697
高新益寿堂中医诊所,四川,成都,双流区,028,,中和街道,朝阳路307号,医疗健康,中医,104.096087962,30.5612966924
理疗科,四川,成都,双流区,028,,蛟龙港,双流区高新大道524号附近,医疗健康,中医,103.89544934,30.6138596006
安德仁中医诊所,四川,成都,双流区,028,61485209,华阳,双流区通济桥街38-42号附近,医疗健康,中医,104.048784524,30.5058039635
靓甲净灰指甲,四川,成都,双流区,028,,东升镇,藏卫路中段156号,医疗健康,皮肤病医院,103.923368,30.568411
华阳仁爱医院,四川,成都,双流区,028,,华阳,利民二街63-67,医疗健康,妇科医院,104.066780806,30.5073984932
ZU6灰指甲,四川,成都,双流区,028,,中和,双流区柳荫街124号附近,医疗健康,皮肤病医院,104.089943022,30.556508749
黄金甲灰指甲手足癣,四川,成都,双流区,028,,华阳,双流区张家巷72,医疗健康,皮肤病医院,104.056827128,30.5036131757
足康灰指甲康复中心,四川,成都,双流区,028,,东升镇,航港路164号,医疗健康,皮肤病医院,103.93294,30.586134
新甲王无痛专业灰指甲,四川,成都,双流区,028,,华阳,双流区协和上街115-10栋附9号附近,医疗健康,皮肤病医院,104.045603424,30.5078236967
成都玛丽亚天府妇产儿童医院行政中心,四川,成都,双流区,028,85896666,天府新区,双流区天府大道南段2039号,医疗健康,妇科医院,104.076599032,30.4940625669
成都玛丽亚天府妇产儿童医院产科,四川,成都,双流区,028,85896666,天府新区,双流区天府大道南段2039号,医疗健康,妇科医院,104.076376408,30.4943641794
无忧妇科,四川,成都,双流区,028,,双流机场,双流区锦华路四段148号附近,医疗健康,妇科医院,103.983420432,30.5818165775
成都玛丽亚天府妇产儿童医院月子中心,四川,成都,双流区,028,85896666,天府新区,双流区天府大道南段2039号,医疗健康,妇科医院,104.075841308,30.4945040071
金瀚方健康中心,四川,成都,双流区,028,,东升镇,双流区双桂南路与楠桂街交叉口东北100米,医疗健康,心血管医院,103.911161721,30.5570815593
亚健康中心,四川,成都,双流区,028,,双流机场,双流区西航港常乐小区北三街70号,医疗健康,心血管医院,103.98264125,30.5796205764
多轻松健康中心,四川,成都,双流区,028,,中和,双流区双化街87号附近,医疗健康,心血管医院,104.090699404,30.5509317559
康乐氏医学科技（深圳）有限公司,四川,成都,双流区,028,181****7406,航空港,临港路一段星月路105号,医疗健康,其他医疗,103.978544,30.564292
王德兴养生堂,四川,成都,双流区,028,85669277,天府新区,华阳安公路一段268-270号,医疗健康,其他医疗,104.051668,30.510305
听觉有道助听器,四川,成都,双流区,028,61817017,东升镇,双流区东升镇西安路一段105号,医疗健康,其他医疗,103.91789,30.57517
经脉堂针灸火罐,四川,成都,双流区,028,,双流县其他,黄河北路73号附近,医疗健康,其他医疗,103.9956,30.576876
陈氏修脚,四川,成都,双流区,028,183****1085,东升镇,双流弘名美食城67号,医疗健康,其他医疗,103.92828,30.561248
奥亚医院体检,四川,成都,双流区,028,159****6129;182****7633,双流县其他,麓镇西路6幢,医疗健康,体检中心,104.093935,30.481159
千伯视力,四川,成都,双流区,028,67044470,华阳,华新中街,医疗健康,眼科医院,104.055181,30.508428
新视明视力健康开发中心,四川,成都,双流区,028,,华阳,双流区华文巷30号附近,医疗健康,眼科医院,104.052649587,30.5094031728
佳视堂青少年视力健康管理中心,四川,成都,双流区,028,,华阳,双流区正西街与石灰市街交叉口西南50米,医疗健康,眼科医院,104.051057696,30.5057808542
双流区心灵之窗视力咨询服务部,四川,成都,双流区,028,4006111006,东升镇,双流区迎春路一段149,医疗健康,眼科医院,103.929368556,30.5790478992
成都市青少年牙齿矫正中心,四川,成都,双流区,028,,中和,双流区府河路175-177,医疗健康,眼科医院,104.083827585,30.5598889738
双流区第一人民医院健康体检站,四川,成都,双流区,028,,双流县其他,航鹰东路500号,医疗健康,体检中心,103.920731,30.583136
同仁康体中心,四川,成都,双流区,028,,锦华万达,星空路二段与航港路三段交叉口西南角双流万达广场1层外围,医疗健康,体检中心,103.927216,30.59711
君凌健康宣传体验中心,四川,成都,双流区,028,,双流县其他,双流区文明巷与骆新街交叉口西北50米,医疗健康,体检中心,104.141811579,30.5616223471
弘德排毒体验中心,四川,成都,双流区,028,,双流县其他,双流区,医疗健康,体检中心,103.951256722,30.6334636684
老国药房,四川,成都,郫县,028,,德源镇,郫温路594号附近,医疗健康,药店,103.873695,30.800269
康缘大药房,四川,成都,郫县,028,135****1356,红光镇,广场路北一段87号,医疗健康,药店,103.949254,30.780742
百草堂药房,四川,成都,郫县,028,,郫县其他,犀湖街124号,医疗健康,药店,103.971776,30.756866
立创大药房,四川,成都,郫县,028,86798890,郫县其他,羊西线蜀西路399号中海国际购物公园1层,医疗健康,药店,103.978784,30.722208
百信药业,四川,成都,郫县,028,87874945,团结镇,学院街65号,医疗健康,药店,103.98163,30.82176
成都中医药大学附属医院,四川,成都,郫县,028,,羊西线,高新西区西芯大道5号附近,医疗健康,医院,103.964301646,30.7384503209
安孕儿中海国际诊所,四川,成都,郫县,028,87519936;69215188,高新西区,中海国际社区绿茵路108号,医疗健康,医院,103.97544,30.723905
宸光齿艺口腔诊所,四川,成都,郫县,028,89993195;181****3195,郫县其他,汇川街166号中海国际社区子规西庭酒店裙楼3楼314号,医疗健康,齿科,103.98076,30.72042
瑞扬口腔,四川,成都,郫县,028,139****2435;182****0749,郫县其他,天府大道40号,医疗健康,齿科,103.974615,30.757864
虹光牙科,四川,成都,郫县,028,184****4291;153****1533,红光,红光镇广场路360号附7-10号,医疗健康,齿科,103.946830149,30.7777836265
贝洁口腔,四川,成都,郫县,028,68741627,合能四季城,龙梓路227号,医疗健康,齿科,103.988931,30.749433
合作卫生院便民门诊,四川,成都,郫县,028,,高新西区,毛家桥街成都高新区西源医院附近,医疗健康,医院,103.91527,30.74506
华西医院,四川,成都,郫县,028,62539020,高新西区,尚锦路253号,医疗健康,医院,103.930092,30.781153
郫县益康诊所,四川,成都,郫县,028,,红光镇,隆府南巷78号附20,医疗健康,医院,103.949549,30.78214
眼力健眼镜,四川,成都,郫县,028,87862748,郫县其他,四川成都市郫都区华宇天府花城檬柏西路425号,医疗健康,体检中心,103.911273,30.803681
高新一针堂中医诊所,四川,成都,郫县,028,,高新西区,天目路77号保利新天地商业步行街内9栋附103,医疗健康,中医,103.97591,30.73529
成都学院医务室,四川,成都,郫县,028,,郫县其他,高新区百叶路电子科技大学成都学院,医疗健康,其他医疗,103.96451,30.727964
听觉有道助听器,四川,成都,郫县,028,64898969,书院街,郫县郫筒镇一环路东南段108号,医疗健康,其他医疗,103.8872124,30.8056584996
火疗养生馆,四川,成都,郫县,028,,安靖镇,阳光路181号附12号,医疗健康,中医,104.030573238,30.7460279536
中医理疗,四川,成都,郫县,028,,郫县其他,郫县阳光南路1001-附18号附近,医疗健康,中医,104.030647427,30.7429364938
益康中医理疗,四川,成都,郫县,028,,郫县其他,郫都区民兴巷12号附近,医疗健康,中医,104.032912552,30.7474524249
群芳经络养生馆,四川,成都,郫县,028,,犀浦,玉龙二巷60号附近,医疗健康,中医,103.965276629,30.7498232617
明眸一生视力康复中心,四川,成都,郫县,028,,犀浦,郫都区犀池四街67号附近,医疗健康,眼科医院,103.964187652,30.7532197841
视宝鉴视力服务中心,四川,成都,郫县,028,87961316,郫筒,郫都区何公路55号,医疗健康,眼科医院,103.877774924,30.8030623796
心灵之窗视力保护咨询服务部,四川,成都,郫县,028,,郫县其他,郫都区郫都区北大街298附11,医疗健康,眼科医院,103.892590106,30.8119121603
成都市看看视力矫治中心,四川,成都,郫县,028,87853858,犀浦,郫都区郫都区犀浦镇浦兴街204号2楼,医疗健康,眼科医院,103.965724558,30.7530883973
青少年视力恢复体验店,四川,成都,郫县,028,,郫县其他,郫县寿增路与胜利南街交叉口东50米,医疗健康,眼科医院,103.853609562,30.7747094902
鼻舒堂鼻腔健康护理中心,四川,成都,郫县,028,,郫县其他,包家巷与西大街交叉口西50米,医疗健康,耳鼻喉医院,103.883256018,30.8122818913
苗一手清肤老铺,四川,成都,郫县,028,,红光,郫都区正兴路194号,医疗健康,耳鼻喉医院,103.942472488,30.7785141708
一点足·欧标足护 灰指甲,四川,成都,郫县,028,,中海国际,蜀西路399号中海国际购物公园1期1层,医疗健康,皮肤病医院,103.979303,30.722756
一点足·欧标足护灰指甲,四川,成都,郫县,028,61777759,郫县其他,郫都区凉水井街343号,医疗健康,皮肤病医院,103.908559978,30.8057313372
甲甲美灰指甲,四川,成都,郫县,028,,郫筒,郫县一环路西南段与新南街交叉口西50米,医疗健康,皮肤病医院,103.882219344,30.8102604474
专业灰指甲,四川,成都,郫县,028,,郫县其他,安靖雍渡村正义路国济综合医院,医疗健康,皮肤病医院,104.033326384,30.7487703451
甲美克灰指甲,四川,成都,郫县,028,88886666,犀浦,郫都区郫都区岷江街103,医疗健康,皮肤病医院,103.968539536,30.7519070602
郫都区人民医院第三工作区·体检部,四川,成都,郫县,028,152****5360,郫筒街道,东顺巷锦绣东方小区（西南2门）对面,医疗健康,体检中心,103.88915,30.804133
美年大健康,四川,成都,郫县,028,,郫县其他,花样世界奥特莱斯外街3号楼2-3层,医疗健康,体检中心,103.865971,30.811758
第二人民医院-健康体检科,四川,成都,郫县,028,,唐昌镇,近郊丁字街115号,医疗健康,体检中心,103.82255,30.915453
大麦健康生活,四川,成都,郫县,028,4006123277,合作街道,高新区合作路富士康集团西大门,医疗健康,体检中心,103.906127,30.774647
康骨堂颈椎腰康复服务中心,四川,成都,郫县,028,,郫县其他,安宁街126号附近,医疗健康,其他医疗,104.034406543,30.7548713243
天竺草天然植物染护养护发馆,四川,成都,郫县,028,,郫县其他,农民新街与新犀路交叉口东北150米,医疗健康,其他医疗,103.981364518,30.8174741003
国珍健康生活馆,四川,成都,郫县,028,,郫县其他,中心下街与龙普路交叉口东50米,医疗健康,其他医疗,103.802842051,30.8658950871
益生堂健康中心,四川,成都,郫县,028,,郫县其他,郫都区宝生街201号,医疗健康,心血管医院,103.878878653,30.8128071142
健尔堂大药房24小时自动售药,四川,成都,彭州市,028,,彭州其他,天府中路22附近,医疗健康,药店,103.942872,30.977872
蒙阳镇建业大药房,四川,成都,彭州市,028,83823021,蒙阳镇,近郊什新路,医疗健康,药店,104.10859,30.948359
甘露大药房,四川,成都,彭州市,028,83463037,沃尔玛,东湖北街86号,医疗健康,药店,103.960219,30.986158
江志伟药店,四川,成都,彭州市,028,,彭州其他,蒲新路与024乡道交叉口东100米,医疗健康,药店,103.78089,31.103512
百信药业,四川,成都,彭州市,028,83880568,彭州其他,天彭镇东湖路1517号,医疗健康,药店,103.950057,30.98796
康复科针灸推拿科,四川,成都,彭州市,028,,彭州其他,南大街439附近,医疗健康,医院,103.941284,30.97468
卢氏旭早牙科,四川,成都,彭州市,028,83887739,上柳河,体育场西街120号,医疗健康,齿科,103.931868,30.990723
彭州陈氏口腔医院,四川,成都,彭州市,028,83873997;83856997,彭州其他,西北市街87号,医疗健康,齿科,103.936903,30.985618
立新诊所,四川,成都,彭州市,028,,彭州其他,天彭镇东南市街138号,医疗健康,医院,103.9448,30.97868
隆丰镇医院,四川,成都,彭州市,028,83816636,彭州其他,隆丰镇兴隆大街141号,医疗健康,医院,103.87098,31.04483
李学奎口腔诊所,四川,成都,彭州市,028,,朝阳中路,天彭镇朝阳东巷36号碧美恋城中央,医疗健康,齿科,103.954841495,30.984969962
人民医院-住院楼,四川,成都,彭州市,028,,彭州其他,近郊延秀街4号,医疗健康,医院,103.93766,30.989263
赵云牙科,四川,成都,彭州市,028,,彭州其他,延秀街与桂花街交叉口东100米,医疗健康,齿科,103.939177394,30.9895595821
新元健康体检中心,四川,成都,彭州市,028,83881616,彭州其他,花园路98号,医疗健康,体检中心,103.94832,30.99134
彭州市中医医院口腔科,四川,成都,彭州市,028,,彭州其他,南大街400-404号,医疗健康,齿科,103.94165,30.974692
彭州中医院,四川,成都,彭州市,028,,北大街,北大街82号,医疗健康,中医,103.942553,30.985714
tcl体验中心,四川,成都,彭州市,028,,彭州其他,滨河路67号附近,医疗健康,体检中心,103.917030394,30.9269379998
益儿小儿推拿,四川,成都,彭州市,028,182****1170,西华大学,南大街299号,医疗健康,其他医疗,103.942147,30.977471
蓝瞳近视弱视矫正中心,四川,成都,彭州市,028,86238230,彭州其他,天彭镇牡丹北路127号二楼,医疗健康,眼科医院,103.95517,30.9912
视宝鉴视力服务中心,四川,成都,彭州市,028,,西华大学,东南市街106号附近,医疗健康,眼科医院,103.94470945,30.9792705699
舞云堂青少年视力服务中心,四川,成都,彭州市,028,,彭州其他,泰安北路86-92号附近,医疗健康,眼科医院,103.951978236,30.9936328
千里明视力康复保健中心,四川,成都,彭州市,028,,西华大学,彭州市西街191号附近,医疗健康,眼科医院,104.112496376,30.9582268968
岐黄视力矫正中心,四川,成都,彭州市,028,,彭州其他,西海东街41-43号附近,医疗健康,眼科医院,103.93920958,30.9810883876
颐骨堂古中医养生馆,四川,成都,彭州市,028,,彭州其他,彭温路155号附近,医疗健康,中医,103.871086836,30.9722772255
传统中医理疗,四川,成都,彭州市,028,,彭州其他,双龙路南五巷17号附近,医疗健康,中医,103.9517878,30.9737249197
康乐古中医养生堂,四川,成都,彭州市,028,,彭州其他,东北市街与许家巷交叉口东南50米,医疗健康,中医,103.945397437,30.985238999
鼻舒堂,四川,成都,彭州市,028,67973581,天彭镇,天彭镇天府中路126号,医疗健康,耳鼻喉医院,103.945371956,30.9778609038
西门子助听器,四川,成都,彭州市,028,88500889,彭州其他,西北市街137号,医疗健康,其他医疗,103.937291,30.98678
永寿堂全自动脊柱护理,四川,成都,彭州市,028,83700368,彭州其他,翠湖路7-11附近,医疗健康,其他医疗,103.933774,30.984271
珍奥核酸养生馆,四川,成都,彭州市,028,,彭州其他,上升街131-133号,医疗健康,其他医疗,103.9455235,30.9875579739
王师傅蜂场自产蜂蜜,四川,成都,彭州市,028,,朝阳中路,东大街与清平路交叉口西南50米,医疗健康,其他医疗,103.953273,30.983704
彭州市妇幼保健院,四川,成都,彭州市,028,,沃尔玛,回龙东路附近,医疗健康,体检中心,103.966863155,30.9955584069
彭州市公共卫生医疗救治中心,四川,成都,彭州市,028,,彭州其他,金彭东路995号附近,医疗健康,体检中心,103.976811469,30.9884662333
喜来健医疗器械体验中心,四川,成都,彭州市,028,,西华大学,外南街17号附近,医疗健康,体检中心,103.943428695,30.9773687805
世龙世家灰指甲手足健康,四川,成都,彭州市,028,,彭州其他,西南市街72号,医疗健康,皮肤病医院,103.938494772,30.9829130692
凌子心理咨询,四川,成都,彭州市,028,,彭州其他,龙锦东路26附近,医疗健康,精神卫生机构,103.93662,30.995044
成都谐福残疾人关爱中心,四川,成都,彭州市,028,82044858,彭州其他,春崇路东50米,医疗健康,精神卫生机构,103.835532814,31.1594439295
静远心理咨询室,四川,成都,彭州市,028,,彭州其他,小南街31号附近,医疗健康,精神卫生机构,103.944588,30.981922
杜蜂王,四川,成都,蒲江县,028,,蒲江县其他,桫椤路上段63号,医疗健康,药店,103.5071,30.19172
祺祥药店,四川,成都,蒲江县,028,,蒲江县其他,其他飞虎路附近,医疗健康,药店,103.51867,30.19672
太极大药房,四川,成都,蒲江县,028,88533749,鹤山镇,桫椤路中段35号,医疗健康,药店,103.511180015,30.1964268211
早康药房,四川,成都,蒲江县,028,88523293,蒲江县其他,广场西街星期8旅社对面,医疗健康,药店,103.505423,30.196985
中新药业,四川,成都,蒲江县,028,,蒲江县其他,北街与官塘街交叉口东南50米,医疗健康,药店,103.374219686,30.2906432227
西来中心卫生院,四川,成都,蒲江县,028,88601384,西来镇,寻古街附近,医疗健康,医院,103.5121145,30.29999252
蒲江华兴医院,四川,成都,蒲江县,028,,蒲江县其他,清江大道128号,医疗健康,医院,103.52122,30.20348
寿安镇永乐诊所,四川,成都,蒲江县,028,88678730,寿安镇,寿安镇寿安镇农贸市场西侧,医疗健康,医院,103.62553,30.26712
蒲江县大兴镇卫生院,四川,成都,蒲江县,028,88661013,大兴镇,大兴镇大兴镇人民政府北侧,医疗健康,医院,103.41804,30.241605
叶氏牙科,四川,成都,蒲江县,028,87126119,蒲江县其他,蒲阳路259-261号,医疗健康,齿科,103.50146,30.19496
鹤山镇红十字医院,四川,成都,蒲江县,028,88522120,鹤山镇,桫椤路中段140号,医疗健康,医院,103.51094,30.195578
吉美牙科,四川,成都,蒲江县,028,,世纪广场,前卫街22号,医疗健康,齿科,103.510403484,30.1893968331
李明昂中医诊所,四川,成都,蒲江县,028,,蒲江县其他,盐井五街16,医疗健康,中医,103.51865,30.19904
浦江县妇幼保健院-急诊,四川,成都,蒲江县,028,,蒲江县其他,鹤山镇西街39号,医疗健康,体检中心,103.504439592,30.1968201191
健康之家,四川,成都,蒲江县,028,,蒲江县其他,利民路南段79附近,医疗健康,其他医疗,103.63224,30.263273
国医堂中医诊所,四川,成都,蒲江县,028,,寿安镇,围镇路97号附近,医疗健康,中医,103.62595,30.2694
明科健康中心,四川,成都,蒲江县,028,,蒲江县其他,盐井沟四条街45号,医疗健康,心血管医院,103.51768434,30.1991881734
甲丽净灰指甲,四川,成都,蒲江县,028,,蒲江县其他,广场西路2号,医疗健康,皮肤病医院,103.512132,30.191578
全家福健康体验中心,四川,成都,蒲江县,028,,蒲江县其他,广定路168-附15号附近,医疗健康,体检中心,103.521688879,30.1945447398
谢万堂拔火罐,四川,成都,蒲江县,028,,蒲江县其他,文庙街52号附近,医疗健康,中医,103.509117365,30.198418533
张鹤中医诊所,四川,成都,蒲江县,028,,蒲江县其他,鹤山镇盐井七街13号,医疗健康,中医,103.519214,30.199375
世龙世家,四川,成都,蒲江县,028,,蒲江县其他,兴虹街乐和大院旁,医疗健康,其他医疗,103.511688,30.193985
国珍健康生活馆,四川,成都,蒲江县,028,,蒲江县其他,南丝路与鹤山南路交叉口东50米,医疗健康,其他医疗,103.516036123,30.1901966831
中脉健康家园,四川,成都,蒲江县,028,,蒲江县其他,兴虹街与北五街交叉口西50米,医疗健康,其他医疗,103.511193395,30.1952900685
自然调理养生,四川,成都,蒲江县,028,,蒲江县其他,盐井路13号附近,医疗健康,其他医疗,103.521195352,30.200965046
博仕口腔,四川,成都,蒲江县,028,88556777;131****5955,蒲江县其他,朝阳大道3号,医疗健康,齿科,103.506296,30.188111
佳美口腔诊所,四川,成都,蒲江县,028,,蒲江县其他,蒲塘路与西成路交叉口南50米,医疗健康,齿科,103.418918,30.240953
创美口腔诊所,四川,成都,蒲江县,028,,蒲江县其他,飞龙路4号,医疗健康,齿科,103.515182,30.198354
淮口新国药店,四川,成都,青白江区,028,,青白江区,公安街2号,医疗健康,药店,104.32094,30.856131
御方堂大药房,四川,成都,青白江区,028,61764798,青白江区,新河路5附2号,医疗健康,药店,104.25898,30.88492
福安堂药店,四川,成都,青白江区,028,,青白江区,红阳路74号,医疗健康,药店,104.247777611,30.8853017549
青白江无限极中草药养生美容店,四川,成都,青白江区,028,153****9228,青白江区,青白江区栖凤街314号,医疗健康,药店,104.271009564,30.8893955303
创名堂大药房,四川,成都,青白江区,028,,青白江区,教育街与怡湖西路交叉口金满足旁,医疗健康,药店,104.2465,30.881906
青白江区人民医院,四川,成都,青白江区,028,83613115,青白江区,青江南路87号,医疗健康,医院,104.256163,30.876471
友爱医院,四川,成都,青白江区,028,139****6056,青白江区,新河路20-38号,医疗健康,体检中心,104.257079,30.88641
和瑞信中医门诊部,四川,成都,青白江区,028,89303636,青白江区,瀚城国际南大门同华大道710号,医疗健康,医院,104.263926731,30.8914066561
爱雅堂口腔,四川,成都,青白江区,028,61675069,青白江区,同华大道750号附201号瀚城国际商铺,医疗健康,齿科,104.263032,30.89137
宋恒健口腔诊所,四川,成都,青白江区,028,153****8865,青白江区,同金街58号,医疗健康,齿科,104.24418,30.888499
马鞍村卫生站,四川,成都,青白江区,028,,青白江区,马鞍路马鞍社区居委会附近,医疗健康,医院,104.32349,30.84887
龙王卫生院,四川,成都,青白江区,028,83642230,青白江区,龙王乡商贸街30号,医疗健康,医院,104.284971,30.772229
铁二局四处医院,四川,成都,青白江区,028,83663580,青白江区,新河路4号,医疗健康,医院,104.257106,30.885853
瑞雅口腔,四川,成都,青白江区,028,180****9019,青白江区,凤凰西五路87号,医疗健康,齿科,104.265136849,30.8926908591
丽君口腔诊所,四川,成都,青白江区,028,153****0984,青白江区,石家碾东路与菁华路交叉口旁,医疗健康,齿科,104.269400028,30.8853704709
美诚口腔诊所,四川,成都,青白江区,028,,青白江区,青白江区大弯东路,医疗健康,齿科,104.277795553,30.8767821822
温氏中医理疗,四川,成都,青白江区,028,,青白江区,青白江区三西路与弥牟镇南路交叉口东50米,医疗健康,中医,104.201395512,30.8806380676
巴检查院,四川,成都,青白江区,028,,青白江区,红阳街道红阳东路28号城市花园后大门口,医疗健康,体检中心,104.248955101,30.8884932344
益多康健康体验中心,四川,成都,青白江区,028,,青白江区,青白江区青江南路136号附近,医疗健康,体检中心,104.256058931,30.8759730021
成都佰康生物科技体验中心,四川,成都,青白江区,028,,青白江区,青白江区夏家巷与教育街交叉口西北50米,医疗健康,体检中心,104.247820526,30.8805839711
甲冉生灰指甲,四川,成都,青白江区,028,,青白江区,教育街108号,医疗健康,皮肤病医院,104.247706125,30.8814904205
青白江中医院,四川,成都,青白江区,028,83632194,青白江区,城厢镇大东街1号,医疗健康,中医,104.321335,30.854072
北京佰代健康体验中心,四川,成都,青白江区,028,,青白江区,青白江区青江南路183号附近,医疗健康,体检中心,104.255129546,30.8754331612
维视力,四川,成都,青白江区,028,,青白江区,凤凰西五路凤祥大道800号,医疗健康,眼科医院,104.269619,30.891367
城厢公立中心卫生院-急诊,四川,成都,青白江区,028,,青白江区,大东街15,医疗健康,其他医疗,104.32068,30.85562
懿德自然养生堂,四川,成都,青白江区,028,,青白江区,石家碾东路289号20幢附6-7号,医疗健康,其他医疗,104.26729,30.885117
通元堂,四川,成都,青白江区,028,,青白江区,石家碾东路中亿孕婴母婴生活馆旁,医疗健康,其他医疗,104.26371,30.887056
乐美健康生活馆,四川,成都,青白江区,028,,青白江区,杨柳街2号,医疗健康,其他医疗,104.246726111,30.8812683259
奥诺康之家,四川,成都,青白江区,028,138****3123,青白江区,石家碾西路75号9栋附近,医疗健康,其他医疗,104.2545354,30.88848518
科创大药房连锁有限公司西马棚街店,四川,成都,成都,028,64059099,梁家巷,长顺下街西马棚街3号附1号,医疗健康,药店,104.055944,30.669303
太极大药房,四川,成都,成都,028,86671636,春熙路,东大街上东大街段232号,医疗健康,药店,104.07392,30.65424
人中药店,四川,成都,成都,028,86959287,北较场,人民中路三段3号,医疗健康,药店,104.06924,30.6731
北京同仁堂,四川,成都,成都,028,86728310,春熙路,总府路2号,医疗健康,药店,104.080653,30.656813
北京同仁堂,四川,成都,成都,028,65960006,科华北路,科华北路62号附8号,医疗健康,药店,104.076301,30.623333
马泷齿科,四川,成都,成都,028,86669452,春熙路,红星路三段1号国际金融中心二号办公楼2202号,医疗健康,齿科,104.080567,30.654128
圣贝牙科,四川,成都,成都,028,66000207,高新区,桂溪西街60号,医疗健康,齿科,104.078665,30.601441
美昂口腔,四川,成都,成都,028,84274075;84274072,双林路,双林中横路1-5号,医疗健康,齿科,104.108913,30.649338
科瓦齿科,四川,成都,成都,028,4006060222,春熙路,下东大街99号晶融汇广场302-305,医疗健康,齿科,104.081572,30.651735
亚非牙科,四川,成都,成都,028,4006520330,桐梓林,新光路1号观南上域5号楼裙楼3楼301号,医疗健康,齿科,104.058263,30.617309
壹针堂针灸中医馆,四川,成都,成都,028,189****6057,科华北路,商鼎国际2号楼1单元611号,医疗健康,医院,104.068531,30.618798
安生美高新国际门诊,四川,成都,成都,028,82829292,高新区,天府大道北段230号高新国际广场B座4楼,医疗健康,医院,104.066201,30.591443
四川省人民医院,四川,成都,成都,028,86061147,青羊宫,一环路西二段32号,医疗健康,医院,104.039661,30.66251
寇小儿中医馆,四川,成都,成都,028,86140312,红牌楼,碧云路1号,医疗健康,医院,104.03078,30.63944
四川省骨科医院,四川,成都,成都,028,87015226,青羊宫,一环路西一段132号,医疗健康,医院,104.040205,30.650983
王家成正椎堂,四川,成都,成都,028,,杜甫草堂,清江东路11号附17号,医疗健康,中医,104.035709475,30.6676577009
四川大学华西医院妇科,四川,成都,成都,028,86060262,武侯祠,国学巷37号四川大学华西第二医院门诊部旁,医疗健康,妇科医院,104.065807,30.639293
瑞慈,四川,成都,成都,028,4001688188,锦江区,一环路东五段天府国际大厦四楼,医疗健康,体检中心,104.091497,30.641187
若天中医馆,四川,成都,成都,028,87582828,红牌楼,长益路131号,医疗健康,中医,104.027347,30.62684
承启中医-赵征宇工作室,四川,成都,成都,028,4000908621-24414,一品天下大街,蜀兴南街8号附2,医疗健康,中医,104.023689,30.68811
贤本堂中医诊所,四川,成都,成都,028,,玉林,小天北街8号附9号,医疗健康,中医,104.0593,30.63555
成都泰三堂同仁济世中医医院,四川,成都,成都,028,,锦江区,红星路二段2号附2号,医疗健康,中医,104.08127,30.65709
温江杜氏推拿正骨馆,四川,成都,温江区,028,82725841,温江区其他,云凤路302-304号,医疗健康,中医,103.827609,30.693132
四川省皮肤性病研究院,四川,成都,成都,028,86069120,草市街,四道街12号,医疗健康,皮肤病医院,104.055598,30.671069
第二人民医院皮肤病医院,四川,成都,成都,028,86060132,北门大桥,草市街165号新锦江时代锋尚3层,医疗健康,皮肤病医院,104.076267,30.672075
灰指甲新甲连锁,四川,成都,成都,028,,锦江区,水碾河路攀钢成都医院二门诊旁,医疗健康,皮肤病医院,104.106569,30.644758
派恩宜灰指甲,四川,成都,成都,028,62031038;4006661717,桐梓林,紫荆北路69号,医疗健康,皮肤病医院,104.051546,30.616419
灰指甲,四川,成都,成都,028,,科华北路,科华北路建中大厦旁,医疗健康,皮肤病医院,104.076287,30.628936
甲冉生灰指甲,四川,成都,新都区,028,,新都区其他,菜市巷131号,医疗健康,皮肤病医院,104.156378657,30.8258757163
刘先生灰指甲,四川,成都,都江堰市,028,,都江堰其他,江东街95号,医疗健康,皮肤病医院,103.6213879,30.99117716
锦江妇科医院,四川,成都,成都,028,86711786,锦江区,染房街38号,医疗健康,妇科医院,104.068787,30.655253
成都市妇女儿童中心医院双向转诊医院,四川,成都,成都,028,,茶店子,育德路106号,医疗健康,妇科医院,104.015611,30.698157
成都锦江妇产科医院,四川,成都,成都,028,86670839,锦江区,三官堂街3号,医疗健康,妇科医院,104.093758464,30.625864635
海扶医院,四川,成都,成都,028,,双楠,武侯大道双楠段108号,医疗健康,妇科医院,104.009635001,30.634437594
双楠妇产医院健康体检,四川,成都,成都,028,,双楠,盛丰路与红牌楼一街交叉口东100米,医疗健康,体检中心,104.021856487,30.6371585333
成都市妇女儿童中心医院-体检大厅,四川,成都,成都,028,,中坝,日月大道一段1617号,医疗健康,体检中心,103.962749988,30.6759437854
新甲连锁灰指甲,四川,成都,新都区,028,66211262;83950752,蜀龙大道中段,桂水路361号(森林公园)嘉耀新都汇,医疗健康,皮肤病医院,104.172328,30.813677
新津县妇幼保健院-腹泻门诊,四川,成都,新津县,028,,瑞通路,五津东路201号附近,医疗健康,妇科医院,103.815900385,30.4146886846
产科病房二区28-29,四川,成都,成都,028,,武侯祠,国学巷37号四川大学华西医院华西妇产儿童医院F5,医疗健康,产科医院,104.065512121,30.6396232366
产科病房二区39-41,四川,成都,成都,028,,武侯祠,国学巷37号四川大学华西医院华西妇产儿童医院F5,医疗健康,产科医院,104.065369964,30.6396232366
产科病房一区19-20,四川,成都,成都,028,,武侯祠,国学巷37号四川大学华西医院华西妇产儿童医院F7,医疗健康,产科医院,104.065773636,30.6392066877
产科病房二区56-60,四川,成都,成都,028,,武侯祠,国学巷37号四川大学华西医院华西妇产儿童医院F5,医疗健康,产科医院,104.06514734,30.6396232366
产科病房三区13-15床,四川,成都,成都,028,,武侯祠,国学巷37号四川大学华西医院华西妇产儿童医院F11,医疗健康,产科医院,104.065670371,30.6390751455
灰指甲,四川,成都,都江堰市,028,,都江堰其他,石油街74号附近,医疗健康,皮肤病医院,103.636734188,30.9844307362
天枢堂健康中心,四川,成都,新都区,028,,大丰,新都区华美东街52号附近,医疗健康,心血管医院,104.059564322,30.7672610063
汇博美苑健康中心,四川,成都,成都,028,,西南交大,金沙路264号附近,医疗健康,心血管医院,104.050195366,30.6910468897
身心振动健康中心,四川,成都,成都,028,,锦华万达,华润路165号附近,医疗健康,心血管医院,104.095008373,30.6149422153
百草灸健康中心,四川,成都,新都区,028,,大丰,新都区王桥路104号附近,医疗健康,心血管医院,104.048854262,30.7664889305
星显磁疗健康中心,四川,成都,温江区,028,,大学城,温江区杨柳东路北段77号附近,医疗健康,心血管医院,103.826147765,30.6927536975
爱心理疗健康中心,四川,成都,成都,028,138****1619,高新区,高新区大源西街29号,医疗健康,心血管医院,104.03230235,30.5540338463
御濞康鼻腔健康中心,四川,成都,成都,028,,青羊区,贝双街163号附近,医疗健康,心血管医院,103.998595029,30.6680077982
足尚健康中心,四川,成都,成都,028,,西南交大,金沙路70号附近,医疗健康,心血管医院,104.049212337,30.6910549625
大德至爱健康中心,四川,成都,温江区,028,,温江区其他,温江区天府东路139号附近,医疗健康,心血管医院,103.791152984,30.6856241148
DDS生物健康中心,四川,成都,新都区,028,,新都区其他,龙泉驿区万源大道118号附近,医疗健康,心血管医院,104.272362739,30.7176316075
双吉社区青少年心理咨询室,四川,成都,成都,028,,高新区,大源北中街20号,医疗健康,精神卫生机构,104.034096748,30.5580643368
星显智能磁疗健康中心,四川,成都,都江堰市,028,,都江堰其他,岷江路15号11栋附10-11附近,医疗健康,心血管医院,103.648715615,30.9859943678
顺逸心理咨询中心,四川,成都,成都,028,,金牛区,西安北路28号中川大厦2层,医疗健康,精神卫生机构,104.0486,30.66985
圆迹心理咨询公司,四川,成都,成都,028,,跳伞塔,人民南路三段22零三单位商务楼一号楼2楼214,医疗健康,精神卫生机构,104.06622,30.63775
愉家成都心理咨询中心,四川,成都,成都,028,85543360,科华北路,领事馆路9号保利中心西区2栋4单元3101室,医疗健康,精神卫生机构,104.071285576,30.6243112891
可普心理咨询,四川,成都,成都,028,,锦江区,盐道街6号美华大厦11层,医疗健康,精神卫生机构,104.067184,30.649251
林紫成都心理咨询中心,四川,成都,温江区,028,4000980708,珠江国际,温江区光华大道1818号珠江国际花园12栋2单元1902室,医疗健康,精神卫生机构,103.85711655,30.6871914688
睿荷微康工作室,四川,成都,成都,028,65163288,高新区,府城大道中段88号九方购物中心4层,医疗健康,其他医疗,104.064964,30.589867
郑先达骨伤诊所,四川,成都,成都,028,85448620,磨子桥,民主路18号之附8号-附9号,医疗健康,其他医疗,104.0808101,30.6367096643
成都藩格斯商贸医疗器械有限公司,四川,成都,成都,028,83392737,龙潭寺,龙潭华泰路,医疗健康,其他医疗,104.166736,30.694479
贝泰福助听器验配中心,四川,成都,成都,028,83393361,高新区,高新区天府三街新希望国际B座601,医疗健康,其他医疗,104.066456,30.546083
田老师工作室,四川,成都,成都,028,155****9544,蜀汉路,蜀汉路289号附13号517号,医疗健康,其他医疗,104.018789,30.689801
武医堂健康中心,四川,成都,温江区,028,,温江区其他,温江区航天路246号附近,医疗健康,心血管医院,103.843119442,30.6907608811
众锦坊,四川,成都,新都区,028,171****8646,新都区其他,金都街177号,医疗健康,其他医疗,104.162010159,30.8134407453
茁悦口腔,四川,成都,温江区,028,83231897,珠江国际,珠江广场写字楼2楼,医疗健康,齿科,103.864146,30.686559
成都爱迪眼科医院,四川,成都,成都,028,81709120;86258120,府南新区,二环路西二段45号,医疗健康,眼科医院,104.020957,30.666628
爱尔眼科医院,四川,成都,成都,028,87010909,武侯祠,一环路西一段115号,医疗健康,眼科医院,104.04134,30.650745
普瑞眼科医院,四川,成都,成都,028,83318332;83319875,李家沱,一环路北四段215号,医疗健康,眼科医院,104.08823,30.6803
成都医学院附属康桥眼科医院,四川,成都,成都,028,85075888,武侯祠,一环路南四段洗面桥街1号,医疗健康,眼科医院,104.052619,30.635581
目邻眼视光,四川,成都,成都,028,87540848,西南交大,交大路256号附1号,医疗健康,眼科医院,104.038622,30.708858
大洋眼科,四川,成都,温江区,028,,温江区其他,天府街西段16号,医疗健康,眼科医院,103.795026094,30.6869988667
爱耳眼科,四川,成都,都江堰市,028,,都江堰其他,宝莲路177号附近,医疗健康,眼科医院,103.647735268,30.9815655446
康达视力养护中心,四川,成都,温江区,028,,珠江国际,温江区花都大道西段242号,医疗健康,眼科医院,103.871533424,30.6927617702
明眸一生视力康复中心,四川,成都,温江区,028,,大学城,温江区杨柳东路北段14号附近,医疗健康,眼科医院,103.828312308,30.691471288
扶明堂眼病康复中心,四川,成都,温江区,028,,温江区其他,温江区航天路176号附近,医疗健康,眼科医院,103.84224236,30.6916338966
瞳睁,四川,成都,温江区,028,,温江区其他,温江区花都大道西段739号附近,医疗健康,眼科医院,103.86083141,30.6966158155
肛肠科病区,四川,成都,成都,028,,骡马市,青龙街82号,医疗健康,肛肠科医院,104.063197321,30.6691482767
新世纪肛肠医院-B超室,四川,成都,成都,028,,金牛区,一环路北二段与西北桥河边街交叉口北50米,医疗健康,肛肠科医院,104.061117321,30.6862492142
成都东大肛肠医院,四川,成都,成都,028,85030105,科华北路,科华北路1号,医疗健康,肛肠科医院,104.07645,30.63357
日间手术病房519-520,四川,成都,成都,028,,武侯祠,国学巷37号四川大学华西医院第四住院大楼F5,医疗健康,耳鼻喉医院,104.06073913,30.6432947896
民生耳鼻喉医院,四川,成都,成都,028,87332277,骡马市,西玉龙街6号西玉龙街与顺城大街交叉口,医疗健康,耳鼻喉医院,104.069586,30.667424
美臣鼻腔护理,四川,成都,成都,028,,簇桥,百锦路338号附近,医疗健康,耳鼻喉医院,103.989888579,30.6080919922
日间手术病房509-510,四川,成都,成都,028,,武侯祠,国学巷37号四川大学华西医院第四住院大楼F5,医疗健康,耳鼻喉医院,104.060492367,30.6433340198
日间手术病房525,四川,成都,成都,028,,武侯祠,国学巷37号四川大学华西医院第四住院大楼F5,医疗健康,耳鼻喉医院,104.060668051,30.6431944064
耳鼻喉科,四川,成都,温江区,028,,温江区其他,温江区南熏大道二段566号附近,医疗健康,耳鼻喉医院,103.841838688,30.685940125
益君健鼻腔绿色护理中心,四川,成都,都江堰市,028,,都江堰其他,永丰路377号附近,医疗健康,耳鼻喉医院,103.658777922,30.973378809
藓奇堂苗一手清肤老铺,四川,成都,新津县,028,,五津,太康西路20号附近,医疗健康,耳鼻喉医院,103.811946809,30.4199485184
四川省听力语言康复中心,四川,成都,温江区,028,84353395,温江区其他,温江区和居路1266号,医疗健康,耳鼻喉医院,103.896937966,30.7155159375
方老祖鼻炎馆,四川,成都,温江区,028,64256818,温江区其他,温江区鱼凫路74号,医疗健康,耳鼻喉医院,103.835961968,30.7037376677
成都市新都区人民医院-耳鼻咽喉诊室一,四川,成都,新都区,028,,四川音乐学院,新都区育英路东100米,医疗健康,耳鼻喉医院,104.17751044,30.7917579408
成都市新都区中医医院-耳鼻喉科一,四川,成都,新都区,028,,新都区其他,新都区香樟路120号附近,医疗健康,耳鼻喉医院,104.169729352,30.8101372013
成都市第五人民医院-乐于护理中心,四川,成都,温江区,028,,大学城,温江区麻市街33-11号楼附近,医疗健康,耳鼻喉医院,103.830281049,30.6957589899
成都市第五人民医院乐于护理中心,四川,成都,温江区,028,82005120,温江区其他,温江区万春东路与双春巷交叉口东北200米,医疗健康,耳鼻喉医院,103.842625916,30.7037226773
苗一手清肤老铺,四川,成都,都江堰市,028,,都江堰其他,奎光路187-189号附近,医疗健康,耳鼻喉医院,103.61901015,30.9850389459
爱康国宾体检中心,四川,成都,成都,028,4008399365,高新区,天韵路高新国际广场D座3层,医疗健康,体检中心,104.065483119,30.5928391748
爱康国宾体检中心,四川,成都,成都,028,4008100120,高新区,天府大道中段天府三街19号新希望国际C座3层,医疗健康,体检中心,104.068095,30.545817
瑞慈体检,四川,成都,温江区,028,4001688188,珠江国际,光华大道三段1588号7-8层,医疗健康,体检中心,103.863143,30.684178
爱牙仕口腔诊所,四川,成都,新都区,028,89346001,马超路,马超西路298号,医疗健康,体检中心,104.166188,30.812948
美年大健康,四川,成都,新都区,028,187****3026,西南石油大学,新都大道479号附201号,医疗健康,体检中心,104.186417,30.819163
四川省八一康复中心,四川,成都,温江区,028,82668181,温江区其他,永宁镇永宁路81号,医疗健康,体检中心,103.89859,30.717609
华西医院健康管理中心,四川,成都,温江区,028,,青羊区,永宁镇芙蓉大道三段363号,医疗健康,体检中心,103.915393,30.72248
成都新都区中医院-体检总检处,四川,成都,新都区,028,,新都区其他,香樟路201号附近,医疗健康,体检中心,104.170061946,30.8094046324
多来明青少年视力恢复连锁,四川,成都,都江堰市,028,,都江堰其他,景中路93号,医疗健康,体检中心,103.63702,30.98614
执业药师,四川,成都,都江堰市,028,,都江堰其他,安康南路300-29栋附9号,医疗健康,药店,103.648163,30.978776
康贝大药房,四川,成都,都江堰市,028,,都江堰其他,瑞新街附近,医疗健康,药店,103.69078,30.896387
太极大药房,四川,成都,都江堰市,028,87112123,都江堰其他,都江堰大道83号,医疗健康,药店,103.628907,30.992407
兴福药房,四川,成都,都江堰市,028,134****0524,都江堰其他,蒲阳路七色纺旁,医疗健康,药店,103.6261,30.99941
同春大药房,四川,成都,都江堰市,028,136****6761,都江堰其他,中山路幸福阳光对面,医疗健康,药店,103.639988,30.986045
成都市总工会都江堰疗养院,四川,成都,都江堰市,028,,都江堰其他,上游街西50米,医疗健康,医院,103.605958521,30.9809803083
惠东康体专科医院,四川,成都,都江堰市,028,,都江堰其他,翔凤路883号,医疗健康,医院,103.647394,30.969042
阿拉丁牙科,四川,成都,都江堰市,028,87143918,都江堰其他,文荟路374号,医疗健康,齿科,103.647671,30.998132
美雅口腔,四川,成都,都江堰市,028,87120369;19981279119,都江堰其他,岷江路120号,医疗健康,齿科,103.644907,30.982647
华美牙科,四川,成都,都江堰市,028,87112120,都江堰其他,彩虹大道南段114号,医疗健康,齿科,103.65402,30.982279
都江堰鹏程疼痛医院,四川,成都,都江堰市,028,86324771,天籁村,迎宾路432号,医疗健康,医院,103.643418,30.979343
华美牙科,四川,成都,都江堰市,028,87112120,都江堰其他,内二环康兮路100-102号,医疗健康,齿科,103.623158,30.971573
唯美牙科,四川,成都,都江堰市,028,87137028,玉带桥,玉带桥街267号原司法局家属院,医疗健康,齿科,103.631814,30.995364
都江堰市中医医院,四川,成都,都江堰市,028,,都江堰其他,江安河西路下段322号,医疗健康,医院,103.632821,30.962123
都江堰市医疗中心,四川,成都,都江堰市,028,61722517,都江堰其他,宝莲路622号,医疗健康,其他医疗,103.6565979,30.97863207
都江堰蜀都医院,四川,成都,都江堰市,028,69197999,都江堰其他,都江堰大道14号,医疗健康,医院,103.62757,30.99268
明臣视光,四川,成都,都江堰市,028,,蒲阳镇,蒲阳路384号,医疗健康,中医,103.63184,31.00268
仁人门诊部名老中医馆,四川,成都,都江堰市,028,87266739,都江堰其他,江安中路39--45号,医疗健康,中医,103.62341,30.98813
中医祖传康复治疗,四川,成都,都江堰市,028,,都江堰其他,联盟南路9附近,医疗健康,中医,103.65229,30.985132
方氏中医理疗,四川,成都,都江堰市,028,,安顺小区,天府大道与走马河西路中段交叉口北50米,医疗健康,中医,103.630785048,30.9760970671
福瑞益生,四川,成都,都江堰市,028,,新马路,水街147号附近,医疗健康,眼科医院,103.624565005,30.9911541705
太极泥都江堰健康体验中心,四川,成都,都江堰市,028,,都江堰其他,联盟5巷26栋附近,医疗健康,体检中心,103.653937876,30.9845537581
非博亚健康调理体验中心,四川,成都,都江堰市,028,,都江堰其他,奎光西上街88-附1号附近,医疗健康,体检中心,103.616943508,30.9841996384
视立美视力健康管理机构,四川,成都,都江堰市,028,,都江堰其他,岷江路38号附近,医疗健康,眼科医院,103.645838946,30.9845388115
ZBT中老年健康体验中心,四川,成都,都江堰市,028,,天乙街,军民街85号,医疗健康,体检中心,103.621727228,30.9904758701
柳茂中医诊所,四川,成都,都江堰市,028,,都江堰其他,奎光东街117-119号,医疗健康,中医,103.622082621,30.9812114138
扶明堂眼病康复中心,四川,成都,都江堰市,028,,奎光塔公园,奎光路与新乐巷交叉口西南50米,医疗健康,眼科医院,103.619061112,30.9854551478
美年大健康,四川,成都,都江堰市,028,187****3026,都江堰其他,太平街236号水文化广场2号楼4层,医疗健康,体检中心,103.622463,30.993699
都江堰爱尔眼科医院,四川,成都,都江堰市,028,87224120,都江堰其他,安康南路135-151号,医疗健康,眼科医院,103.647674918,30.9810194008
世龙世家,四川,成都,都江堰市,028,,都江堰其他,奎光路325号,医疗健康,皮肤病医院,103.618780822,30.9825669917
王氏专业按摩,四川,成都,都江堰市,028,136****0070,安顺小区,安顺小区安吉路43号,医疗健康,其他医疗,103.630006,30.972363
乌木坊仓库,四川,成都,都江堰市,028,,都江堰其他,胥家镇学府路二段388号,医疗健康,其他医疗,103.673395962,30.9992474163
听觉有道助听器,四川,成都,都江堰市,028,87158284,蒲阳路,灌口镇蒲阳路199号,医疗健康,其他医疗,103.628119,31.001042
何氏洗炙堂,四川,成都,都江堰市,028,135****9610,都江堰其他,观凤路7号,医疗健康,其他医疗,103.634013,30.982824
龙桥镇益民药房,四川,成都,新都区,028,,新都区其他,通江街59号附近,医疗健康,药店,104.02669251,30.8190174269
科伦药业,四川,成都,新都区,028,82988555;82998999,西南交大,工业大道东段南二路520号,医疗健康,药店,104.16798,30.798504
贝尔康大药房,四川,成都,新都区,028,,西南石油大学,正因南街63号,医疗健康,药店,104.18818,30.824472
丹麦瑞声达助听器,四川,成都,新都区,028,64620802,桂湖,电子路139号附1号,医疗健康,药店,104.15461,30.81573
康仁药房,四川,成都,新都区,028,,新都区其他,物流大道676号附3,医疗健康,药店,104.13953,30.7933
太阳神现代灸疗馆,四川,成都,新都区,028,,龙桥,新都区洪山堂西路2号11附近,医疗健康,体检中心,104.015345424,30.8394825862
康永医疗,四川,成都,新都区,028,,新都区其他,新都区工贸小区,医疗健康,体检中心,104.165123999,30.8277344529
新都刘氏口腔诊所,四川,成都,新都区,028,83984841,新都区其他,石板滩东风街75号,医疗健康,齿科,104.27196,30.725393
新都欧菲牙科医院,四川,成都,新都区,028,83999066,桂湖,湖滨路368号,医疗健康,齿科,104.160548,30.817452
新都星华口腔诊所,四川,成都,新都区,028,158****7395;180****8044,新都区其他,同仁路吉祥五金斜对面,医疗健康,齿科,104.190721,30.824625
久善口腔诊所,四川,成都,新都区,028,83999361,大丰街道,大丰镇亲河路66号,医疗健康,齿科,104.055784,30.764854
铂菲特牙科,四川,成都,新都区,028,83015100,新都区其他,宝光大道中段793号,医疗健康,齿科,104.15276,30.82525
千贝口腔诊所,四川,成都,新都区,028,189****3836,新繁,滨江西路东湖森林广场83-85号,医疗健康,医院,104.016338,30.878106
成都建工赛利混凝土有限公司,四川,成都,新都区,028,,新都区其他,新石路西50米,医疗健康,医院,104.250230491,30.7548413594
宝康医院,四川,成都,新都区,028,83961007,桂湖,湖滨路272-278号,医疗健康,医院,104.159261,30.817644
成都市新都区人民医院,四川,成都,新都区,028,83972235,新都区其他,育英路东150米,医疗健康,医院,104.178260118,30.7928685142
成都市新都区第三人民医院,四川,成都,新都区,028,83911257,新都区其他,崇义桥街468附近,医疗健康,医院,104.054985,30.770184
侯昌福喉科诊所,四川,成都,新都区,028,,马超路,爱莲春街与小南街交叉口东,医疗健康,其他医疗,104.015698,30.87226
自然医学养生,四川,成都,新都区,028,,新都区其他,新都区东街33号附近,医疗健康,其他医疗,104.166801721,30.8274027851
王中华骨健康馆,四川,成都,新都区,028,,桂湖,新都区圣谕亭巷与新泰西路交叉口东北50米,医疗健康,其他医疗,104.163754731,30.8214475401
一德养生堂,四川,成都,新都区,028,,熊猫基地,新都区丁香路21号附近,医疗健康,其他医疗,104.145614952,30.7565389709
李家富中医诊所,四川,成都,新都区,028,,新都区其他,金龙街57号,医疗健康,中医,104.010736048,30.8738838355
许氏中医馆,四川,成都,新都区,028,,桂湖,公园路195号,医疗健康,中医,104.154639,30.818164
新都区中医院,四川,成都,新都区,028,83972217,新都区其他,新中路97号,医疗健康,中医,104.161047,30.825458
肖氏中医养生堂,四川,成都,新都区,028,,新都区其他,将军街与新业路交叉口东南50米,医疗健康,中医,104.230626225,30.785043537
马师中医理疗推拿,四川,成都,新都区,028,,新都区其他,锦江路与滨江西路交叉口,医疗健康,中医,104.011744,30.879666
成都恒福医院-妇科诊疗中心,四川,成都,新都区,028,,龙桥,新都区阳光林森路196号附近,医疗健康,妇科医院,104.021562785,30.8413019098
甲冉生灰指甲,四川,成都,新都区,028,,大丰,新都区丰安路143号附近,医疗健康,皮肤病医院,104.054183811,30.7616569787
赵氏专业灰指甲,四川,成都,新都区,028,,新都区其他,博海路与电子路交叉口西北50米,医疗健康,皮肤病医院,104.157957137,30.814789344
专业灰指甲,四川,成都,新都区,028,,新都区其他,正因北街东一巷与正因北街西一巷交叉口东50米,医疗健康,皮肤病医院,104.189270586,30.8247332779
博爱斜弱视训练,四川,成都,新都区,028,,桂湖,新都区勤俭巷10号,医疗健康,眼科医院,104.158545882,30.8261221679
眼姐治疗按摩,四川,成都,新都区,028,,新都区其他,南丰大道576附近,医疗健康,眼科医院,104.069254,30.752744
骞眸科技视力养护中心,四川,成都,新都区,028,,四川音乐学院,新都区新都镇育英路633号,医疗健康,眼科医院,104.182138592,30.8041267462
上海骞眸科技视力养护中心,四川,成都,新都区,028,,四川音乐学院,新都区东街与圣谕亭巷交叉口西北50米,医疗健康,眼科医院,104.164036363,30.8274108465
已然眼动力,四川,成都,新都区,028,,桂湖,新都区东环路与东环路三巷交叉口西北50米,医疗健康,眼科医院,104.167724401,30.8260991351
太极大药房,四川,成都,新津县,028,82481522,新津县其他,府西路32号,医疗健康,药店,103.883015,30.485971
健康药房,四川,成都,新津县,028,,五津镇,西仓街附近,医疗健康,药店,103.809926,30.411286
百信药业,四川,成都,新津县,028,,普兴镇,普兴镇万年台街东街17号,医疗健康,药店,103.899649,30.404979
无限极,四川,成都,新津县,028,,五津镇,五津东路149号,医疗健康,药店,103.818244,30.414487
新津恒生医院,四川,成都,新津县,028,82587777,新津县其他,宾大道74号,医疗健康,医院,103.80864,30.421695
新津华丽口腔诊所,四川,成都,新津县,028,,新津县其他,太康西路90-92号,医疗健康,齿科,103.810905,30.420009
便民门诊部,四川,成都,新津县,028,,新津县其他,太中东街附近,医疗健康,医院,103.813136,30.418853
刘娜口腔诊所,四川,成都,新津县,028,,新津县其他,纯阳路与黄鹤大道交叉口东,医疗健康,齿科,103.798943,30.415161
罗氏锦堂诊所,四川,成都,新津县,028,,新津县其他,复兴街附近,医疗健康,医院,103.813692,30.409825
国家体委体育辅导医院,四川,成都,新津县,028,82431226,新津县其他,复兴街,医疗健康,医院,103.81415,30.40989
美年大健康,四川,成都,新津县,028,,新津客运站,新津金融中心2楼,医疗健康,体检中心,103.817209,30.425696
金华镇卫生院,四川,成都,新津县,028,82471006,金华镇,硝矿北街8号,医疗健康,医院,103.88555,30.37948
加华牙科,四川,成都,新津县,028,82526881,新津县其他,武阳中路225号附近,医疗健康,齿科,103.8174963,30.4104822327
新津县中医院,四川,成都,新津县,028,82522648,新津县其他,武津镇正北街97号,医疗健康,中医,103.815271,30.425714
好视立视光中心,四川,成都,新津县,028,,外东街区,武阳中路302号附近,医疗健康,眼科医院,103.819230348,30.4106834804
皓敏齿科,四川,成都,新津县,028,82588512,新津县其他,望江路16号,医疗健康,齿科,103.810126,30.406067
新津中医院,四川,成都,新津县,028,86359999,新津县其他,模范街97号,医疗健康,中医,103.811911,30.410376
新津县中医院口腔第一门诊部,四川,成都,新津县,028,,新津县其他,岳巷子附近,医疗健康,齿科,103.815338,30.409212
仁济中医馆,四川,成都,新津县,028,,新津县其他,西顺河街152号,医疗健康,中医,103.80689,30.41043
新津县妇幼保健院-发热门诊,四川,成都,新津县,028,,瑞通路,五津东路201号,医疗健康,妇科医院,103.815998286,30.4146192918
灰指甲,四川,成都,新津县,028,,新津县其他,五津北路与太升东街交叉口北,医疗健康,皮肤病医院,103.812339,30.41672
效方中医诊所,四川,成都,新津县,028,,新津县其他,108国道东苑公寓旁,医疗健康,中医,103.82254,30.413801
老中医院,四川,成都,新津县,028,,新津县其他,模范街111号,医疗健康,中医,103.811776489,30.4110940705
新津可暖体验店,四川,成都,新津县,028,133****3302,百伦百货,五津南路54附7-8,医疗健康,体检中心,103.811011,30.412958
多元建树,四川,成都,新津县,028,,金三角,儒林路与忠义路交叉口南50米,医疗健康,体检中心,103.800159842,30.4194998014
紫薇星,四川,成都,新津县,028,,二十一街区,外西街与惠丰后街交叉口南100米,医疗健康,其他医疗,103.807617724,30.4108534996
华林孝笑族健康生活馆,四川,成都,新津县,028,,二十一街区,正西街160-7号附近,医疗健康,其他医疗,103.808497488,30.4102335641
新生儿出生缺陷监测中心,四川,成都,新津县,028,,五津镇,五津东路201号,医疗健康,其他医疗,103.815917,30.414619
紫薇星健康家园,四川,成都,新津县,028,,瑞通路,兴隆街219号,医疗健康,其他医疗,103.818181604,30.4130544701
紫薇星健康之家,四川,成都,新津县,028,139****5173,新津县其他,商业街与武阳中路交叉口西南50米,医疗健康,其他医疗,103.815802485,30.4102647923
馨睿堂鼻炎馆,四川,成都,新津县,028,,二十一街区,惠丰路与武阳西路交叉口西北50米,医疗健康,耳鼻喉医院,103.807632476,30.4127745807
万华大药房,四川,成都,温江区,028,189****6331;186****7695,温江区其他,光华大道3段同兴东路88号,医疗健康,药店,103.869754,30.683816
蓉春堂大药房,四川,成都,温江区,028,133****3646,温江区其他,清泉北街265号,医疗健康,药店,103.879631,30.681583
润馨堂药业,四川,成都,温江区,028,,温江区其他,海科路西段418号,医疗健康,药店,103.80042,30.66766
万华大药房,四川,成都,温江区,028,189****6331,温江区其他,温泉路78号,医疗健康,药店,103.834399,30.696637
明宏大药房连锁,四川,成都,温江区,028,82679225,温江区其他,凤凰北大街与光华大道三段交叉口旁,医疗健康,药店,103.890586,30.67897
煜燃堂经络养生会馆,四川,成都,温江区,028,138****8246,城市公园,和宁街2号繁华时代4栋1层1213号,医疗健康,医院,103.844335568,30.6989465185
锦辉口腔,四川,成都,温江区,028,82766241,文庙,赞元街143号,医疗健康,齿科,103.839356,30.695737
锦辉口腔,四川,成都,温江区,028,82628210,南浦盛宴,杨柳西路北段39号怡和茗居小区旁,医疗健康,齿科,103.826462,30.692091
懿峰牙科,四川,成都,温江区,028,82715158,温江区其他,凤溪大道北段532号,医疗健康,齿科,103.829545,30.698926
四川省八一康复中心-住院部,四川,成都,温江区,028,,温江区其他,温江区八一路北段81,医疗健康,医院,103.898590207,30.7176085487
温江智慧医疗云医院,四川,成都,温江区,028,,珠江国际,天宝中街与燎原路交叉口西北200米,医疗健康,医院,103.861015141,30.6891543736
御坊堂经络养生馆,四川,成都,温江区,028,,温江大学城,温江区游家渡小区速8酒店旁,医疗健康,中医,103.832072765,30.6692293829
祝火罐,四川,成都,温江区,028,,文庙,温江区团结巷25号,医疗健康,中医,103.841717988,30.695094743
玟中阁中医理疗,四川,成都,温江区,028,,温江区其他,温江区柳城街道柳城谊苑二号楼门对面,医疗健康,中医,103.846728355,30.6901508035
中医诊所,四川,成都,温江区,028,,温江区其他,云溪路294号附近,医疗健康,中医,103.833046407,30.6960749668
李草堂,四川,成都,温江区,028,181****5181,温江区其他,两河路东段95号6栋附28,医疗健康,医院,103.84614,30.69074
温江区惠民医院,四川,成都,温江区,028,82611531,温江区其他,天乡路一段769-777,医疗健康,医院,103.866995126,30.7087581653
北京永康理疗中心,四川,成都,温江区,028,159****7198,温江区其他,凤溪大道555号恒大城6栋303,医疗健康,其他医疗,103.854184737,30.6795091688
恒大医院,四川,成都,温江区,028,180****0775,温江区其他,南浦路西段103号,医疗健康,体检中心,103.83818,30.690735
金柏年健康体验中心,四川,成都,温江区,028,,文庙,温江区香榭里街75号,医疗健康,体检中心,103.842580318,30.6986327276
制氧机.呼吸机,四川,成都,温江区,028,,大学城,麻市街71-73号附近,医疗健康,其他医疗,103.828767,30.697097
星瑞仁家健康家园,四川,成都,温江区,028,,温江区其他,温江区永文路与永福街交叉口南50米,医疗健康,其他医疗,103.906447738,30.7256015592
正本堂健康养生中心,四川,成都,温江区,028,136****3812,温江区其他,两河路西段168号,医疗健康,其他医疗,103.836302,30.686415
冯医生推拿理疗会所,四川,成都,温江区,028,,温江区其他,青啤大道附近,医疗健康,其他医疗,103.824458,30.668127
甲美克灰指甲,四川,成都,温江区,028,,文庙,团结巷30号,医疗健康,皮肤病医院,103.840823472,30.6964232322
甲美天下灰指甲,四川,成都,温江区,028,,文庙,温江区北街与西大街交叉口东50米,医疗健康,皮肤病医院,103.836271763,30.699188553
甲美克灰指甲,四川,成都,温江区,028,,温江区其他,万春路58号,医疗健康,皮肤病医院,103.839022,30.702055
足缘健康管理有限公司灰指甲康复中心,四川,成都,温江区,028,,温江区其他,温江区骑士大道北50米附近,医疗健康,皮肤病医院,103.842042536,30.6488906975
铭甲科技灰指甲修复服务中心,四川,成都,温江区,028,,文庙,温江区团结巷与文武路交叉口南50米,医疗健康,皮肤病医院,103.840565979,30.6968637515
蓝海医院-肛肠科女VIP,四川,成都,成都,028,,北较场,洛阳路与白下路交叉口北50米,医疗健康,肛肠科医院,104.069308788,30.6762286844
成都誉美医院-肛肠科诊断室,四川,成都,成都,028,,十里店,下涧槽路11号附近,医疗健康,肛肠科医院,104.135740399,30.6805320573
佳人妇科医院,四川,成都,温江区,028,82711999;82686561,南浦盛宴,柳浪湾街18号,医疗健康,妇科医院,103.83138,30.6841
玛丽亚妇科医院,四川,成都,都江堰市,028,69608888,都江堰其他,观景路490号,医疗健康,妇科医院,103.633918,30.999892
成都致青春商务信息咨询有限公司,四川,成都,金堂县,028,181****1315,金堂县其他,迎宾大道67号,医疗健康,体检中心,104.410314,30.859243
